stop_id,stop_name,latitude,longitude
186741980,Stop_186741980,13.0578356,80.2427521
243049436,Stop_243049436,13.0634424,80.2434914
243064594,Stop_243064594,13.0608709,80.2652174
246866326,Stop_246866326,12.9873013,80.2594187
247675520,Stop_247675520,13.0349762,80.2307357
248467432,Stop_248467432,13.0513061,80.2305555
248545141,Stop_248545141,13.1076189,80.2440927
249497682,Stop_249497682,13.0109976,80.2591938
249497696,Stop_249497696,13.0070054,80.2583614
249497892,Stop_249497892,13.0148091,80.2593497
250319253,Stop_250319253,13.0363377,80.2394517
250327570,Stop_250327570,13.0379784,80.2276266
252171269,Stop_252171269,12.9949254,80.1993669
254142204,Stop_254142204,13.1041595,80.2931903
254142280,Stop_254142280,13.1023579,80.2715583
254143113,Stop_254143113,13.1089336,80.2820595
256039818,Stop_256039818,13.0080754,80.2093905
256203093,Stop_256203093,12.9259317,80.1191544
257932256,Stop_257932256,13.0936754,80.2508682
259662367,Stop_259662367,13.0524541,80.26382
262666364,Stop_262666364,13.0505637,80.2796983
273459875,Stop_273459875,12.907558,80.2283136
277375984,Stop_277375984,12.9912772,80.0951151
277912055,Stop_277912055,12.9652732,80.2071039
278744710,Stop_278744710,12.975951,80.2210664
278745849,Stop_278745849,12.9682899,80.18948
278746364,Stop_278746364,12.9754924,80.183263
278747097,Stop_278747097,12.9830658,80.1888463
279150540,Stop_279150540,12.9946395,80.200193
290656624,Stop_290656624,13.1054562,80.2079273
293396820,Stop_293396820,13.0678104,80.2269115
299808136,Stop_299808136,13.0002825,80.2653435
299882966,Stop_299882966,12.9810098,80.2066688
300134382,Stop_300134382,12.988501,80.197819
300316947,Stop_300316947,13.0081325,80.2133106
300370338,Stop_300370338,12.9816619,80.1957195
301736148,Stop_301736148,13.0389089,80.2500396
301736149,Stop_301736149,13.0380814,80.2559271
301736152,Stop_301736152,13.036222,80.2552101
301736165,Stop_301736165,13.0387535,80.2588492
301736187,Stop_301736187,13.0414948,80.2476472
301736898,Stop_301736898,13.0379526,80.2468797
301736902,Stop_301736902,13.0479032,80.2538704
301736903,Stop_301736903,13.0458825,80.2566441
301736912,Stop_301736912,13.0464693,80.2605344
301736913,Stop_301736913,13.0351077,80.2571309
303010139,Stop_303010139,13.0332207,80.2529435
303010141,Stop_303010141,13.0355237,80.2474418
303284240,Stop_303284240,13.081757,80.2767558
303284248,Stop_303284248,13.0812612,80.2718576
303510894,Stop_303510894,13.0298352,80.2378848
303512414,Stop_303512414,13.0195637,80.2246585
303536869,Stop_303536869,13.0292235,80.2541619
303536872,Stop_303536872,13.0293892,80.2598201
303569588,Stop_303569588,13.0290452,80.2492676
303695784,Stop_303695784,13.0737672,80.2618156
303695785,Stop_303695785,13.0726877,80.2625412
303695815,Stop_303695815,13.0783875,80.2636552
304908971,Stop_304908971,13.035344,80.2505226
304920824,Stop_304920824,13.0036646,80.2007035
304920825,Stop_304920825,13.0024998,80.2007856
304921944,Stop_304921944,13.0779219,80.2623857
305478863,Stop_305478863,12.9656695,80.2037268
306551393,Stop_306551393,13.0192595,80.2242262
306551395,Stop_306551395,13.0405526,80.2470139
306551396,Stop_306551396,13.0373003,80.2463991
308301022,Stop_308301022,13.0467908,80.2482982
308313775,Stop_308313775,13.0191024,80.2063609
308317064,Stop_308317064,13.0348314,80.2118803
308811912,Stop_308811912,12.9816928,80.1956168
308917111,Stop_308917111,12.9880075,80.1856076
309062093,Stop_309062093,13.0702882,80.2738035
309062094,Stop_309062094,13.0706454,80.2736995
309185794,Stop_309185794,13.0671092,80.2685713
309185812,Stop_309185812,13.0627904,80.2636986
309185820,Stop_309185820,13.0592286,80.2597052
309185827,Stop_309185827,13.0593116,80.259461
309323593,Stop_309323593,13.0627272,80.2446808
309323867,Stop_309323867,13.055035,80.2493071
309812160,Stop_309812160,13.0076778,80.2099257
310100943,Stop_310100943,13.0068649,80.2407247
310102879,Stop_310102879,13.0034175,80.2475947
310591980,Stop_310591980,12.9699902,80.1863409
310592291,Stop_310592291,12.9661338,80.1885663
310592748,Stop_310592748,12.9647635,80.1964403
310593525,Stop_310593525,12.9654812,80.2003039
310593794,Stop_310593794,12.9636419,80.2153047
310729808,Stop_310729808,13.0445134,80.2685481
312031432,Stop_312031432,13.0068437,80.2493803
312686129,Stop_312686129,13.0473146,80.2663311
313106870,Stop_313106870,13.0319681,80.2111904
313135889,Stop_313135889,13.0565054,80.2549392
313159416,Stop_313159416,12.9909681,80.2199873
313442701,Stop_313442701,12.9796394,80.1829783
313783576,Stop_313783576,12.9963185,80.2624567
315888034,Stop_315888034,13.0523172,80.2637555
316066248,Stop_316066248,13.0803743,80.2883666
316244808,Stop_316244808,13.0520086,80.2576831
316244809,Stop_316244809,13.0672558,80.2705663
316244810,Stop_316244810,13.0565217,80.2564362
317827746,Stop_317827746,12.9885068,80.2558808
317827781,Stop_317827781,12.9883987,80.255959
318066696,Stop_318066696,12.9853009,80.2596367
318069500,Stop_318069500,12.9858076,80.2597253
319473140,Stop_319473140,13.0677732,80.255043
319489527,Stop_319489527,12.9847385,80.2522404
322719303,Stop_322719303,12.9876477,80.2553395
323202504,Stop_323202504,12.7305486,79.9837805
325191477,Stop_325191477,13.0061894,80.2475374
325191941,Stop_325191941,13.0065151,80.2416004
330654132,Stop_330654132,12.9865619,80.2385165
330780587,Stop_330780587,12.9885153,80.229819
330780590,Stop_330780590,12.9867147,80.2332146
330780591,Stop_330780591,12.9865599,80.2353872
334222809,Stop_334222809,13.0439822,80.2683767
334222896,Stop_334222896,13.0448129,80.2632997
334267136,Stop_334267136,12.9960126,80.2678
334713155,Stop_334713155,13.0110148,80.2592709
334713159,Stop_334713159,13.0078478,80.2587288
338250257,Stop_338250257,12.9655423,80.2003456
340096084,Stop_340096084,12.9257704,80.11852
343721497,Stop_343721497,13.0386195,80.2588399
344411089,Stop_344411089,13.0635006,80.2434529
353719171,Stop_353719171,12.9951542,80.1873759
355515114,Stop_355515114,13.0462093,80.256558
355550113,Stop_355550113,13.0775116,80.2618805
356274121,Stop_356274121,13.049045,80.2804835
356277093,Stop_356277093,13.0665178,80.2687218
357233537,Stop_357233537,13.0563899,80.2817387
357233543,Stop_357233543,13.0567968,80.2820086
360807238,Stop_360807238,13.0594652,80.2476713
360807295,Stop_360807295,13.0594687,80.2480638
362227770,Stop_362227770,13.0207736,80.2699092
365279752,Stop_365279752,13.0470132,80.2487062
365957307,Stop_365957307,13.0166571,80.1892332
365983874,Stop_365983874,13.013981,80.2265266
366083028,Stop_366083028,13.0088683,80.2112087
366855005,Stop_366855005,13.0672505,80.253857
368390910,Stop_368390910,12.8238617,80.2401637
370969649,Stop_370969649,13.0408567,80.1280794
370969652,Stop_370969652,13.0407272,80.1279797
370969655,Stop_370969655,13.0381632,80.135238
370969661,Stop_370969661,13.0368549,80.1422989
370969664,Stop_370969664,13.0354754,80.1542326
370969668,Stop_370969668,13.0365785,80.1426413
370969671,Stop_370969671,13.0349841,80.1551858
370969686,Stop_370969686,13.0322785,80.1637329
370969689,Stop_370969689,13.0320596,80.1635994
370969697,Stop_370969697,13.0294745,80.168324
370969700,Stop_370969700,13.0249393,80.1768338
370969702,Stop_370969702,13.0246916,80.1768125
373156194,Stop_373156194,12.9057495,80.1678369
373156197,Stop_373156197,12.8901528,80.1844457
373156202,Stop_373156202,12.9075148,80.1986767
373169717,Stop_373169717,13.1587549,80.2984032
373169886,Stop_373169886,13.1592829,80.3021668
378688565,Stop_378688565,13.0513415,80.2516342
378688568,Stop_378688568,13.0514752,80.2518854
384486247,Stop_384486247,13.0799588,80.2547872
384723341,Stop_384723341,13.0508703,80.0947946
386002530,Stop_386002530,13.0303695,80.238274
386002531,Stop_386002531,13.0295543,80.2437738
389516314,Stop_389516314,13.0368739,80.2466823
389964617,Stop_389964617,13.0441881,80.1936767
391823865,Stop_391823865,13.0073565,80.2018029
391823888,Stop_391823888,13.0073386,80.1969623
393765035,Stop_393765035,13.0852627,80.2854922
393765044,Stop_393765044,13.0875965,80.2852522
393765046,Stop_393765046,13.0885188,80.2881787
400900464,Stop_400900464,13.0470241,80.2119327
400900776,Stop_400900776,13.0489528,80.207122
401769773,Stop_401769773,12.9947061,80.206537
401880679,Stop_401880679,13.0627931,80.19718
401880700,Stop_401880700,13.0631192,80.1972144
401880712,Stop_401880712,13.0692689,80.2006237
401880999,Stop_401880999,13.068119,80.2049305
402290952,Stop_402290952,13.0694912,80.1243046
402292542,Stop_402292542,12.9738315,80.2033552
402292545,Stop_402292545,13.0574894,80.2041542
405508932,Stop_405508932,13.0480237,80.2540873
407981751,Stop_407981751,13.0368855,80.2670356
407983130,Stop_407983130,13.037429,80.264641
410293823,Stop_410293823,13.0470929,80.2329094
410293824,Stop_410293824,13.0477362,80.2330399
410613113,Stop_410613113,13.0264512,80.2641778
410613378,Stop_410613378,13.0251384,80.2651734
410614381,Stop_410614381,13.0338433,80.2678513
410614397,Stop_410614397,13.0339269,80.2680487
410615353,Stop_410615353,13.0369967,80.2665843
411316688,Stop_411316688,13.0490005,80.1923804
412728360,Stop_412728360,13.0397952,80.2635513
413858335,Stop_413858335,13.0352016,80.2704429
414712723,Stop_414712723,13.0546862,80.2641983
414712727,Stop_414712727,13.0546528,80.26443
414713529,Stop_414713529,13.0643489,80.2821764
414713705,Stop_414713705,13.0656532,80.28373
414713706,Stop_414713706,13.0645078,80.2820391
414714010,Stop_414714010,13.0645245,80.2837471
415913900,Stop_415913900,13.0700162,80.2420245
415913904,Stop_415913904,13.0704837,80.2421189
416412294,Stop_416412294,13.0375277,80.2677619
416412351,Stop_416412351,13.0378454,80.2675965
417750649,Stop_417750649,13.0007984,80.2672903
417750654,Stop_417750654,12.9960874,80.2676685
418116038,Stop_418116038,13.0293213,80.2661449
418116039,Stop_418116039,13.0288278,80.2638491
418116040,Stop_418116040,13.027196,80.266243
418116041,Stop_418116041,13.0248633,80.2651335
418116043,Stop_418116043,13.0414805,80.2586885
418116044,Stop_418116044,13.0417098,80.259068
418116045,Stop_418116045,13.0374839,80.2561629
442131985,Stop_442131985,12.9254158,80.1169355
442506948,Stop_442506948,12.9652457,80.2069875
459632401,Stop_459632401,13.0545015,80.2039738
459633603,Stop_459633603,13.0544382,80.2042343
459633606,Stop_459633606,13.0546223,80.2013161
560212201,Stop_560212201,12.9426369,80.1403121
571352244,Stop_571352244,13.0394488,80.2455135
577362217,Stop_577362217,13.0687582,80.2052047
577376043,Stop_577376043,13.0065537,80.2463099
595702075,Stop_595702075,13.0573428,80.194058
595702076,Stop_595702076,13.0576459,80.1945516
595704144,Stop_595704144,13.0598825,80.1953348
595706156,Stop_595706156,13.0498765,80.2148572
595714972,Stop_595714972,13.0525853,80.1921188
595735860,Stop_595735860,13.0473925,80.197845
597593840,Stop_597593840,13.0419272,80.1781903
604693344,Stop_604693344,13.0515688,80.2773605
611743120,Stop_611743120,13.1030788,80.2527847
614009832,Stop_614009832,12.9233012,80.1550118
618609725,Stop_618609725,13.0977818,80.239926
674698187,Stop_674698187,13.1023633,80.2717659
674698252,Stop_674698252,13.1023304,80.2713764
674698261,Stop_674698261,13.1088417,80.2819651
675752169,Stop_675752169,13.1089416,80.2423446
675754680,Stop_675754680,13.1075776,80.2441079
687175415,Stop_687175415,13.0685084,80.2039344
691189595,Stop_691189595,13.0242582,80.1786556
694064191,Stop_694064191,12.9205917,80.184473
729821770,Stop_729821770,13.0463818,80.2394822
812316994,Stop_812316994,12.8801203,80.0803767
842831419,Stop_842831419,12.8801424,80.0803071
864565804,Stop_864565804,12.9257678,80.118579
864565808,Stop_864565808,12.9257493,80.1193278
864565817,Stop_864565817,12.925671,80.118681
864565818,Stop_864565818,12.9258497,80.1192445
864565821,Stop_864565821,12.9256959,80.1194553
919522123,Stop_919522123,13.0832295,80.2829442
919522213,Stop_919522213,13.0834778,80.2826722
934859082,Stop_934859082,13.0442357,80.1851648
941583422,Stop_941583422,13.0743151,80.2205217
959609084,Stop_959609084,13.0531886,80.2479182
964604284,Stop_964604284,12.9022643,80.2161796
964604586,Stop_964604586,12.9485883,80.198932
966544114,Stop_966544114,13.0812054,80.2730145
966556116,Stop_966556116,13.0750408,80.2714362
978213017,Stop_978213017,13.16683,80.2459642
978588586,Stop_978588586,12.9404138,80.2056611
978589169,Stop_978589169,12.9290185,80.2025986
996517630,Stop_996517630,13.0463902,80.1902132
1001424410,Stop_1001424410,13.067506,80.2534748
1001424417,Stop_1001424417,13.0644904,80.2589582
1001424418,Stop_1001424418,13.0643704,80.2588711
1007625832,Stop_1007625832,13.0488793,80.211988
1007625852,Stop_1007625852,13.007729,80.2098628
1008034321,Stop_1008034321,12.9951306,80.1992885
1008034345,Stop_1008034345,12.9947038,80.1994765
1015556637,Stop_1015556637,13.0210492,80.1839234
1015562222,Stop_1015562222,13.0208127,80.1838081
1015569839,Stop_1015569839,13.0317215,80.1799082
1015570222,Stop_1015570222,13.0314288,80.1839637
1015570839,Stop_1015570839,13.0289829,80.1836954
1015572322,Stop_1015572322,13.0312474,80.1817554
1015575361,Stop_1015575361,13.0393621,80.1969563
1015575816,Stop_1015575816,13.0414839,80.1967337
1015576952,Stop_1015576952,13.0388666,80.1992208
1015577154,Stop_1015577154,13.041139,80.199263
1015578911,Stop_1015578911,13.0417139,80.1932226
1015580858,Stop_1015580858,13.0381601,80.1926862
1015581126,Stop_1015581126,13.0373344,80.1964198
1015583032,Stop_1015583032,13.0364268,80.2017334
1015583945,Stop_1015583945,13.0407523,80.2050136
1015584175,Stop_1015584175,13.0411599,80.2053891
1024558013,Stop_1024558013,13.0316543,80.2122049
1024560151,Stop_1024560151,13.032555,80.2119909
1024562407,Stop_1024562407,13.0350618,80.2119045
1024570438,Stop_1024570438,13.0351977,80.2082567
1024673452,Stop_1024673452,13.0229376,80.1467353
1024674757,Stop_1024674757,13.0198426,80.1433427
1067520553,Stop_1067520553,13.0272893,80.254263
1069492323,Stop_1069492323,13.0867314,80.2757841
1109183357,Stop_1109183357,13.1210128,80.1998698
1141163691,Stop_1141163691,12.9671675,80.2195576
1149067214,Stop_1149067214,13.0145999,80.1743748
1165551007,Stop_1165551007,13.0776718,80.225143
1183430572,Stop_1183430572,12.9966477,80.2490952
1183430650,Stop_1183430650,12.9981822,80.2489226
1183430763,Stop_1183430763,12.9893849,80.2508691
1183430887,Stop_1183430887,12.9911334,80.2506682
1183431007,Stop_1183431007,13.0034788,80.2474452
1184256833,Stop_1184256833,13.1023555,80.2715142
1185692895,Stop_1185692895,13.1170247,80.096898
1185703062,Stop_1185703062,13.1160521,80.1062634
1197445418,Stop_1197445418,12.9948463,80.1994107
1200694624,Stop_1200694624,12.8445841,80.2264618
1207424028,Stop_1207424028,13.0846312,80.2203688
1240545660,Stop_1240545660,12.9880545,80.2524511
1280328281,Stop_1280328281,13.0715858,80.2646192
1311558790,Stop_1311558790,13.0571946,80.2647294
1311558791,Stop_1311558791,13.057111,80.2649869
1311558792,Stop_1311558792,13.0642263,80.2657999
1311558793,Stop_1311558793,13.0475472,80.261006
1311558794,Stop_1311558794,13.0508912,80.2625181
1311558795,Stop_1311558795,13.0521591,80.2639569
1330414243,Stop_1330414243,12.9284375,80.202201
1334303173,Stop_1334303173,13.0202075,80.2626599
1453592060,Stop_1453592060,12.9639187,80.2564812
1453592062,Stop_1453592062,12.9665741,80.2478057
1457114931,Stop_1457114931,12.9669208,80.2482764
1457114934,Stop_1457114934,12.969085,80.2577701
1457114942,Stop_1457114942,12.9694054,80.2576146
1457114953,Stop_1457114953,12.979143,80.2525895
1457114954,Stop_1457114954,12.9794944,80.2528353
1467456714,Stop_1467456714,13.1415836,80.2371784
1666841444,Stop_1666841444,12.9290533,80.20255
1676204804,Stop_1676204804,12.9847375,80.2523565
1676204841,Stop_1676204841,12.9861494,80.2503872
1676204843,Stop_1676204843,12.9861778,80.244571
1676204850,Stop_1676204850,12.9863453,80.2502837
1676204856,Stop_1676204856,12.9863612,80.2444706
1676252666,Stop_1676252666,13.0466924,80.2330053
1685049528,Stop_1685049528,13.0440218,80.2597715
1685049537,Stop_1685049537,13.0443128,80.2596312
1693491914,Stop_1693491914,12.9200019,80.170946
1693497698,Stop_1693497698,12.9197291,80.1711286
1703352021,Stop_1703352021,12.9755085,80.1577918
1703352022,Stop_1703352022,12.9802128,80.1632657
1711224934,Stop_1711224934,12.9392427,80.1825888
1764308008,Stop_1764308008,12.9712721,80.2189421
1863536092,Stop_1863536092,13.0505119,80.214339
1883603286,Stop_1883603286,12.9463536,80.1973913
1899719037,Stop_1899719037,12.9484438,80.1944768
1899719039,Stop_1899719039,12.9486686,80.1944821
1899719797,Stop_1899719797,12.9485908,80.1990259
1899719800,Stop_1899719800,12.9485052,80.1989831
1899720980,Stop_1899720980,12.9485432,80.2034407
1899720981,Stop_1899720981,12.9487941,80.2033549
1920364154,Stop_1920364154,12.9806753,80.1880722
1936473299,Stop_1936473299,12.7305342,79.9839361
1936491013,Stop_1936491013,12.9258985,80.1184261
1937584276,Stop_1937584276,12.917249,80.1937685
1949567462,Stop_1949567462,12.9639064,80.2159702
1949567464,Stop_1949567464,12.9633783,80.2160859
1952553763,Stop_1952553763,13.0363098,80.2206213
1952555473,Stop_1952555473,13.0370153,80.2208949
1955951295,Stop_1955951295,13.0343805,80.2161535
1955951298,Stop_1955951298,13.0418514,80.2161173
1955951301,Stop_1955951301,13.0416992,80.2160469
1955951303,Stop_1955951303,13.0343297,80.2162105
1971862196,Stop_1971862196,13.0082459,80.2334763
1971877221,Stop_1971877221,13.0074903,80.2367344
1975496434,Stop_1975496434,13.0566614,80.2426317
2039504294,Stop_2039504294,12.9491156,80.1839603
2039504299,Stop_2039504299,12.9494528,80.1838235
2072482089,Stop_2072482089,13.0383858,80.1651227
2077234674,Stop_2077234674,12.9338132,80.2040466
2082925056,Stop_2082925056,12.937124,80.234118
2082925057,Stop_2082925057,12.9448917,80.2386779
2082925106,Stop_2082925106,12.945991,80.2396626
2083090321,Stop_2083090321,12.9394621,80.2357344
2083090427,Stop_2083090427,12.9400132,80.2356326
2099314355,Stop_2099314355,12.9526215,80.2418685
2099361681,Stop_2099361681,12.9358886,80.2339915
2137260915,Stop_2137260915,13.008573,80.1977929
2142333096,Stop_2142333096,13.0148049,80.1744872
2145422466,Stop_2145422466,12.9878498,80.1852853
2145429148,Stop_2145429148,12.9828496,80.1884958
2151931377,Stop_2151931377,12.9858342,80.1884954
2157590801,Stop_2157590801,12.997438,80.2162638
2158620128,Stop_2158620128,12.9974054,80.2165418
2158620129,Stop_2158620129,12.9974127,80.2164502
2166705605,Stop_2166705605,12.9636777,80.2157187
2188511086,Stop_2188511086,13.0343967,80.2680763
2197496797,Stop_2197496797,13.0539962,80.2422574
2237592529,Stop_2237592529,13.0342665,80.2304553
2239237792,Stop_2239237792,13.0244589,80.2198196
2241055785,Stop_2241055785,13.0092567,80.211347
2241072260,Stop_2241072260,13.0208206,80.2252558
2241832803,Stop_2241832803,13.0749522,80.271371
2245351858,Stop_2245351858,12.9902418,80.2275498
2269384782,Stop_2269384782,13.1023311,80.2714212
2271085296,Stop_2271085296,13.0488035,80.2071743
2271478018,Stop_2271478018,13.0820442,80.2754967
2271478031,Stop_2271478031,13.082079,80.2757368
2271478038,Stop_2271478038,13.0821338,80.2754831
2271478046,Stop_2271478046,13.0821553,80.2756074
2271478054,Stop_2271478054,13.0821719,80.2757147
2274387931,Stop_2274387931,13.0064935,80.2543698
2376817233,Stop_2376817233,12.9418993,80.1429158
2394698615,Stop_2394698615,13.0923311,80.2189211
2438975982,Stop_2438975982,12.9949578,80.1993542
2481259034,Stop_2481259034,13.0741931,80.2422047
2481259036,Stop_2481259036,13.0776606,80.2600514
2481259037,Stop_2481259037,13.0776988,80.2600443
2481259038,Stop_2481259038,13.0780514,80.2615176
2481259039,Stop_2481259039,13.0781047,80.2615048
2481259040,Stop_2481259040,13.0782233,80.2614998
2481259041,Stop_2481259041,13.0783611,80.26146
2481259042,Stop_2481259042,13.0784164,80.2614501
2481259043,Stop_2481259043,13.0785478,80.2614302
2481259044,Stop_2481259044,13.0785891,80.2614185
2481259045,Stop_2481259045,13.0787267,80.2614163
2481989471,Stop_2481989471,13.0642741,80.2658589
2481989472,Stop_2481989472,13.0643262,80.2659171
2481989473,Stop_2481989473,13.0643752,80.2659784
2482014614,Stop_2482014614,13.0592806,80.2597741
2482014616,Stop_2482014616,13.0593336,80.2598375
2482014617,Stop_2482014617,13.0593726,80.2595362
2482014618,Stop_2482014618,13.0607702,80.26254
2482014620,Stop_2482014620,13.0594322,80.2596151
2482014623,Stop_2482014623,13.0594885,80.2596874
2482072866,Stop_2482072866,13.0817908,80.2770347
2482072867,Stop_2482072867,13.0818202,80.2772826
2482072870,Stop_2482072870,13.0818538,80.2775047
2482072873,Stop_2482072873,13.0818727,80.2777397
2482072875,Stop_2482072875,13.0628652,80.2637854
2482072877,Stop_2482072877,13.0629492,80.2638825
2482072878,Stop_2482072878,13.064682,80.2663928
2482072879,Stop_2482072879,13.064772,80.2661116
2482072880,Stop_2482072880,13.0810225,80.2883335
2482072921,Stop_2482072921,13.0763656,80.276459
2482072922,Stop_2482072922,13.0768078,80.276179
2482072933,Stop_2482072933,13.0849072,80.2833818
2482075364,Stop_2482075364,13.074166,80.2620635
2482075367,Stop_2482075367,13.0689097,80.267339
2482075369,Stop_2482075369,13.0716607,80.2646506
2482301305,Stop_2482301305,13.0503752,80.2403628
2482301372,Stop_2482301372,13.0570031,80.2349394
2485153591,Stop_2485153591,13.0417872,80.2683179
2485153597,Stop_2485153597,13.041983,80.2681148
2485980398,Stop_2485980398,13.0652457,80.2737964
2486085722,Stop_2486085722,13.0581355,80.2781176
2486085724,Stop_2486085724,13.0602054,80.2776637
2486106727,Stop_2486106727,13.0300269,80.2505676
2486226649,Stop_2486226649,13.0825901,80.2763077
2486226651,Stop_2486226651,13.0914641,80.285738
2486226652,Stop_2486226652,13.091953,80.2751809
2486226653,Stop_2486226653,13.0943483,80.2923716
2486226655,Stop_2486226655,13.0961399,80.286395
2486226656,Stop_2486226656,13.0990436,80.2937634
2486226657,Stop_2486226657,13.0996879,80.2866699
2486226658,Stop_2486226658,13.1010909,80.2749364
2486226659,Stop_2486226659,13.1034911,80.2867769
2489157878,Stop_2489157878,13.072135,80.2739713
2495414567,Stop_2495414567,13.102301,80.2706743
2515095267,Stop_2515095267,12.9648737,80.196993
2583555195,Stop_2583555195,13.1511559,80.2997199
2587520213,Stop_2587520213,12.9988972,80.2559382
2587520244,Stop_2587520244,13.0162622,80.259525
2587520245,Stop_2587520245,13.0163426,80.259582
2587520246,Stop_2587520246,13.0164211,80.259639
2587520247,Stop_2587520247,13.0165092,80.259698
2587530808,Stop_2587530808,12.9984686,80.2561546
2587530809,Stop_2587530809,13.0002744,80.2564084
2739927426,Stop_2739927426,13.1084248,80.180271
2739929645,Stop_2739929645,13.108223,80.1834048
2739938120,Stop_2739938120,13.1103434,80.180364
3016127769,Stop_3016127769,12.9223538,80.1416469
3016129434,Stop_3016129434,12.9226099,80.1436734
3016138304,Stop_3016138304,12.9223457,80.1383932
3016138305,Stop_3016138305,12.9224877,80.1386033
3016141192,Stop_3016141192,12.9227845,80.1330579
3016141193,Stop_3016141193,12.9228855,80.1311754
3016141194,Stop_3016141194,12.9226722,80.1312269
3016144952,Stop_3016144952,12.9232126,80.1205736
3016144953,Stop_3016144953,12.9234246,80.1206459
3016148044,Stop_3016148044,12.9066371,80.0962763
3030620399,Stop_3030620399,13.0740453,80.2208523
3215416374,Stop_3215416374,13.0076573,80.2585701
3215417205,Stop_3215417205,13.0160134,80.2594407
3215420255,Stop_3215420255,13.0202685,80.2627298
3215424909,Stop_3215424909,13.0230542,80.2639113
3215426872,Stop_3215426872,13.0264662,80.2643155
3215469782,Stop_3215469782,13.0370202,80.2664553
3215471511,Stop_3215471511,13.0342194,80.2679152
3215471512,Stop_3215471512,13.029318,80.2659968
3215471942,Stop_3215471942,13.0445256,80.2653165
3215474364,Stop_3215474364,13.0416655,80.2682136
3215478754,Stop_3215478754,13.04479,80.2628089
3215488159,Stop_3215488159,13.0476081,80.2542024
3215494190,Stop_3215494190,13.0461435,80.2567561
3215497011,Stop_3215497011,13.0504157,80.2525025
3215497034,Stop_3215497034,13.0553071,80.2493825
3215500283,Stop_3215500283,13.0695972,80.2421558
3215503639,Stop_3215503639,13.062284,80.2449997
3215508149,Stop_3215508149,13.0897099,80.2509902
3215509332,Stop_3215509332,13.0787644,80.244405
3215513362,Stop_3215513362,13.0845368,80.2502683
3215513434,Stop_3215513434,13.0872409,80.2507551
3215523368,Stop_3215523368,13.0941477,80.2509589
3215523791,Stop_3215523791,13.0972089,80.2513821
3215524962,Stop_3215524962,13.1049521,80.2531007
3215525045,Stop_3215525045,13.1064019,80.2493548
3215525963,Stop_3215525963,13.1071652,80.2458654
3215525982,Stop_3215525982,13.1080594,80.2445619
3216954757,Stop_3216954757,13.108164,80.2444885
3216957362,Stop_3216957362,13.1073116,80.2467397
3216958497,Stop_3216958497,13.1062169,80.250519
3216970886,Stop_3216970886,13.105056,80.2531768
3216970916,Stop_3216970916,13.1023363,80.2526445
3216985354,Stop_3216985354,13.0972157,80.2514514
3216985475,Stop_3216985475,13.0694621,80.2433699
3216986182,Stop_3216986182,13.0936235,80.2509794
3216986939,Stop_3216986939,13.0906349,80.2511188
3216986940,Stop_3216986940,13.0872089,80.2506503
3216986967,Stop_3216986967,13.0834502,80.254603
3216990390,Stop_3216990390,13.0787415,80.2521255
3216990971,Stop_3216990971,13.0677838,80.2465225
3216991399,Stop_3216991399,13.0666677,80.2478922
3216991543,Stop_3216991543,13.0573221,80.2487138
3216992157,Stop_3216992157,13.0413309,80.2683208
3216992158,Stop_3216992158,13.044299,80.2691671
3216993078,Stop_3216993078,13.0606301,80.247496
3216994236,Stop_3216994236,13.0501996,80.2526129
3216995418,Stop_3216995418,13.0549585,80.2496516
3216995837,Stop_3216995837,13.048023,80.2538615
3216995856,Stop_3216995856,13.0459666,80.256717
3216996445,Stop_3216996445,13.0253858,80.2654342
3216997832,Stop_3216997832,13.0344064,80.2681224
3216998093,Stop_3216998093,13.0447018,80.2648393
3216998713,Stop_3216998713,13.0376266,80.2677461
3216999998,Stop_3216999998,13.0299144,80.2667491
3217000237,Stop_3217000237,13.0222664,80.2634866
3217004886,Stop_3217004886,13.0162141,80.2597582
3217004899,Stop_3217004899,13.0070713,80.2586412
3217004939,Stop_3217004939,12.998741,80.2561722
3217006341,Stop_3217006341,12.9889638,80.2560835
3247299914,Stop_3247299914,12.9868818,80.2579993
3247310920,Stop_3247310920,12.9766865,80.259059
3247310921,Stop_3247310921,12.9850797,80.2594959
3247388390,Stop_3247388390,12.9694759,80.257895
3247394198,Stop_3247394198,12.96954,80.2575889
3247406935,Stop_3247406935,12.9540502,80.2552125
3247410861,Stop_3247410861,12.9504769,80.2550489
3247419936,Stop_3247419936,12.9273395,80.2514212
3247421162,Stop_3247421162,12.9384549,80.2528146
3247421163,Stop_3247421163,12.9496587,80.254723
3247422104,Stop_3247422104,12.9273447,80.2514507
3258044158,Stop_3258044158,12.9140134,80.2503942
3258044670,Stop_3258044670,12.9205379,80.2513359
3258047142,Stop_3258047142,12.8975923,80.2474836
3258047153,Stop_3258047153,12.8774931,80.2438102
3258049393,Stop_3258049393,12.8689025,80.2435911
3258057378,Stop_3258057378,12.8597978,80.241912
3258057379,Stop_3258057379,12.8505026,80.2411932
3258057380,Stop_3258057380,12.8416956,80.2406239
3258058365,Stop_3258058365,12.8312622,80.2404381
3258059445,Stop_3258059445,12.8256677,80.2403201
3258069508,Stop_3258069508,12.8178381,80.2405354
3259348351,Stop_3259348351,12.8059508,80.2429515
3261253463,Stop_3261253463,12.8062686,80.2430098
3261257465,Stop_3261257465,12.8416654,80.2405603
3261257466,Stop_3261257466,12.8276183,80.2403223
3261260258,Stop_3261260258,12.8598425,80.2418337
3261261651,Stop_3261261651,12.8778797,80.2438159
3261262160,Stop_3261262160,12.8679009,80.2433625
3261262339,Stop_3261262339,12.9205826,80.251487
3261264219,Stop_3261264219,12.9148864,80.2503116
3262960162,Stop_3262960162,12.9384795,80.2526055
3262970161,Stop_3262970161,12.9544995,80.2550838
3262996627,Stop_3262996627,13.0066383,80.2547553
3262998692,Stop_3262998692,12.9612601,80.2562079
3262998735,Stop_3262998735,13.0065479,80.2465371
3263003853,Stop_3263003853,13.0074031,80.2367069
3263010049,Stop_3263010049,13.0221248,80.2262769
3263015762,Stop_3263015762,13.0294483,80.2309064
3263015885,Stop_3263015885,13.0232491,80.2274463
3263015892,Stop_3263015892,13.0143216,80.2262688
3263017226,Stop_3263017226,13.0083174,80.2334438
3264712469,Stop_3264712469,13.0072847,80.2097658
3264719874,Stop_3264719874,13.0073801,80.2014349
3264719879,Stop_3264719879,13.0072285,80.1970414
3264721594,Stop_3264721594,13.0237184,80.1785664
3264823358,Stop_3264823358,13.0290781,80.1689077
3264825519,Stop_3264825519,13.0323105,80.1632027
3264825906,Stop_3264825906,13.0345369,80.1566688
3264826261,Stop_3264826261,13.0365019,80.1430003
3264827350,Stop_3264827350,13.0410957,80.127076
3264828694,Stop_3264828694,13.0379914,80.135136
3264829569,Stop_3264829569,13.0448932,80.1161771
3264830297,Stop_3264830297,13.0464643,80.1113082
3264830986,Stop_3264830986,13.0491896,80.1054234
3264831529,Stop_3264831529,13.0502091,80.0994727
3264832443,Stop_3264832443,13.0515356,80.0950719
3264834128,Stop_3264834128,13.0473146,80.0808884
3264834152,Stop_3264834152,13.0404738,80.0578133
3264835785,Stop_3264835785,13.037751,80.0575719
3264836166,Stop_3264836166,13.0433402,80.063682
3264839775,Stop_3264839775,13.0409702,80.0577677
3264840298,Stop_3264840298,13.0427079,80.0615791
3264851616,Stop_3264851616,13.0474021,80.0805504
3264852764,Stop_3264852764,13.0509244,80.0950324
3264860906,Stop_3264860906,13.0502738,80.099413
3264861262,Stop_3264861262,13.0492822,80.1057014
3264861573,Stop_3264861573,13.0466895,80.1111041
3264865893,Stop_3264865893,13.0450211,80.1159757
3264869197,Stop_3264869197,13.0357914,80.154217
3264869925,Stop_3264869925,13.036954,80.1418335
3264871280,Stop_3264871280,13.0318741,80.1643507
3264873477,Stop_3264873477,13.0295066,80.168626
3264878136,Stop_3264878136,13.0250276,80.1767049
3264878737,Stop_3264878737,13.0209667,80.1839683
3264882061,Stop_3264882061,13.0238073,80.1789017
3264882332,Stop_3264882332,13.016826,80.1893475
3264883462,Stop_3264883462,13.0086502,80.1975671
3264883515,Stop_3264883515,13.0155768,80.225033
3298619178,Stop_3298619178,12.980629,80.2287544
3298619179,Stop_3298619179,12.9817095,80.2303946
3377597538,Stop_3377597538,13.0073755,80.2615847
3605047768,Stop_3605047768,12.9816323,80.1856214
3678928567,Stop_3678928567,13.1166176,80.1005434
3724408109,Stop_3724408109,13.0412747,80.2247636
3724408110,Stop_3724408110,13.042286,80.2246214
3725571283,Stop_3725571283,13.0403357,80.2416011
3729730986,Stop_3729730986,12.9727402,80.1385326
3729730987,Stop_3729730987,12.9730257,80.138054
3732413818,Stop_3732413818,13.0404185,80.2392262
3732415367,Stop_3732415367,13.0407738,80.2376491
3742401976,Stop_3742401976,12.9717802,80.1415393
3742401984,Stop_3742401984,12.9716047,80.1418002
3872358350,Stop_3872358350,12.9575161,80.1253251
3969967347,Stop_3969967347,12.9681668,80.1485336
3990598049,Stop_3990598049,13.0465771,80.191524
4129578889,Stop_4129578889,12.8320778,80.2292023
4153840390,Stop_4153840390,13.0290249,80.2242622
4153840489,Stop_4153840489,13.031205,80.2242183
4153840589,Stop_4153840589,13.0311449,80.2240709
4153840689,Stop_4153840689,13.0290173,80.2240205
4158510090,Stop_4158510090,12.8665865,80.0754114
4158845697,Stop_4158845697,12.8629155,80.0740504
4172727623,Stop_4172727623,12.9785526,80.2253586
4221545249,Stop_4221545249,13.001675,80.1960093
4221545250,Stop_4221545250,13.001732,80.1960854
4221545251,Stop_4221545251,13.0017833,80.1961615
4221572806,Stop_4221572806,13.0036032,80.2119807
4221779489,Stop_4221779489,13.0140912,80.2045927
4308329989,Stop_4308329989,13.0241758,80.213001
4311241791,Stop_4311241791,13.0451067,80.1156733
4358666333,Stop_4358666333,12.981636,80.2334748
4358676514,Stop_4358676514,12.9877973,80.2230746
4384940991,Stop_4384940991,12.9985806,80.2391518
4384940992,Stop_4384940992,12.999126,80.2394049
4384979890,Stop_4384979890,12.9960586,80.2359191
4384980791,Stop_4384980791,12.9920732,80.2337735
4384985391,Stop_4384985391,12.9921946,80.2336686
4384995091,Stop_4384995091,12.9961354,80.2362203
4384995092,Stop_4384995092,13.0026838,80.2402119
4384996591,Stop_4384996591,12.9939545,80.2343355
4385019891,Stop_4385019891,13.0025534,80.2400679
4385019892,Stop_4385019892,13.0038121,80.2413768
4385029489,Stop_4385029489,12.9941561,80.2347372
4385062589,Stop_4385062589,12.9911913,80.2330109
4385062689,Stop_4385062689,12.9910868,80.2321166
4402620433,Stop_4402620433,12.9032844,80.2279555
4402620434,Stop_4402620434,12.9032855,80.2280166
4402620444,Stop_4402620444,12.9075689,80.228228
4406456567,Stop_4406456567,12.9132888,80.2292825
4407799377,Stop_4407799377,13.0400117,80.242543
4407799419,Stop_4407799419,13.0399858,80.2429146
4411798690,Stop_4411798690,13.0204579,80.1845
4411849791,Stop_4411849791,13.014377,80.1935118
4411855089,Stop_4411855089,13.0210717,80.1833445
4417314190,Stop_4417314190,13.0407196,80.2306959
4421925892,Stop_4421925892,13.067122,80.2479405
4421948892,Stop_4421948892,13.0645529,80.2349783
4421948893,Stop_4421948893,13.0679286,80.2486265
4421967489,Stop_4421967489,13.064739,80.2346949
4533572479,Stop_4533572479,13.1024603,80.2711188
4533572480,Stop_4533572480,13.1024641,80.2711741
4639687854,Stop_4639687854,12.9216339,80.0925211
4640168129,Stop_4640168129,12.9209595,80.0897056
4666745989,Stop_4666745989,12.990514,80.1499095
4732042730,Stop_4732042730,13.0726445,80.2019974
4739613829,Stop_4739613829,13.0735659,80.2003418
4758901321,Stop_4758901321,13.1941264,80.1833469
4763208284,Stop_4763208284,13.0580016,80.2782021
4763208285,Stop_4763208285,13.0470676,80.23531
4763212040,Stop_4763212040,13.048667,80.2600237
4763212995,Stop_4763212995,13.0326478,80.2775015
4763213172,Stop_4763213172,13.033435,80.2772514
4785434123,Stop_4785434123,13.031501,80.1913595
4788407922,Stop_4788407922,13.1088932,80.2867926
4789389223,Stop_4789389223,13.104527,80.2867247
4864012223,Stop_4864012223,13.1078822,80.2913847
4910251723,Stop_4910251723,12.9266796,80.1276135
4948353021,Stop_4948353021,13.0289852,80.2543724
5090924222,Stop_5090924222,12.923495,80.1545664
5093966251,Stop_5093966251,12.8988445,80.2279854
5207918374,Stop_5207918374,13.0363277,80.2016549
5225868729,Stop_5225868729,13.109584,80.0610379
5225963092,Stop_5225963092,12.9861355,80.2512974
5227401703,Stop_5227401703,13.0853785,80.2013107
5227454884,Stop_5227454884,13.0191075,80.2064422
5228340704,Stop_5228340704,13.0243667,80.2066739
5228342635,Stop_5228342635,13.0243263,80.2069943
5229995717,Stop_5229995717,13.1215291,80.0639365
5229998568,Stop_5229998568,13.1158343,80.0633252
5239594891,Stop_5239594891,13.0870648,80.1981881
5258976322,Stop_5258976322,12.8856231,80.1513995
5258977225,Stop_5258977225,12.8897333,80.1430852
5259036521,Stop_5259036521,12.8885674,80.1452887
5259058521,Stop_5259058521,12.8870239,80.1486323
5259088435,Stop_5259088435,12.8836322,80.1543394
5259114725,Stop_5259114725,12.8941183,80.1411752
5259129622,Stop_5259129622,12.9022476,80.1420235
5259141322,Stop_5259141322,12.9177987,80.1457925
5304209965,Stop_5304209965,12.8330267,80.228884
5304399879,Stop_5304399879,12.9256047,80.1043133
5318529343,Stop_5318529343,13.0468396,80.2121426
5318530216,Stop_5318530216,13.053955,80.2114618
5318537692,Stop_5318537692,13.0630102,80.2115596
5320093328,Stop_5320093328,13.082197,80.1983699
5328279366,Stop_5328279366,13.0799248,80.2251225
5332423915,Stop_5332423915,12.9420294,80.2533063
5332440110,Stop_5332440110,12.976764,80.2592029
5336301540,Stop_5336301540,13.076939,80.2152668
5336303647,Stop_5336303647,13.075358,80.2176034
5336309421,Stop_5336309421,13.0851915,80.2178689
5336309429,Stop_5336309429,13.0906948,80.2180699
5336311486,Stop_5336311486,13.0957115,80.2187163
5336393773,Stop_5336393773,13.1027785,80.2086858
5338328029,Stop_5338328029,13.1032312,80.1989924
5338328041,Stop_5338328041,13.1036674,80.2026581
5338516190,Stop_5338516190,13.1080663,80.2061553
5338598421,Stop_5338598421,13.1022099,80.2107409
5338600702,Stop_5338600702,13.1001091,80.2145485
5338602064,Stop_5338602064,13.0956228,80.2189413
5338606117,Stop_5338606117,13.0900917,80.2182669
5338606922,Stop_5338606922,13.0858113,80.218134
5338612406,Stop_5338612406,13.0848033,80.2159601
5338614518,Stop_5338614518,13.0848976,80.2132579
5338616524,Stop_5338616524,13.0847224,80.2118818
5338617221,Stop_5338617221,13.0849958,80.2109928
5338656232,Stop_5338656232,13.0848336,80.2095342
5338658745,Stop_5338658745,13.0850967,80.2095483
5355818030,Stop_5355818030,13.0186408,80.2059235
5356742026,Stop_5356742026,13.054195,80.253785
5373987234,Stop_5373987234,13.0873581,80.1974447
5394814347,Stop_5394814347,13.0878057,80.1903448
5394822729,Stop_5394822729,13.0875626,80.1893914
5400380243,Stop_5400380243,13.0692359,80.2065633
5400380933,Stop_5400380933,13.073976,80.2002264
5400381038,Stop_5400381038,13.0820746,80.1987027
5400381616,Stop_5400381616,13.0318973,80.2113404
5400381618,Stop_5400381618,13.0476117,80.2123446
5400382521,Stop_5400382521,13.0580044,80.2116987
5400382522,Stop_5400382522,13.0651401,80.2112943
5460685950,Stop_5460685950,13.0653877,80.2676197
5486341834,Stop_5486341834,12.9874595,80.2553985
5486499215,Stop_5486499215,13.00809,80.21336
5489108080,Stop_5489108080,13.0410443,80.1733792
5624538882,Stop_5624538882,13.119438,80.1986536
5628388498,Stop_5628388498,12.9866789,80.2333649
5631301095,Stop_5631301095,12.9852935,80.259745
5631301097,Stop_5631301097,13.014823,80.2591757
5631301098,Stop_5631301098,13.0565227,80.2549486
5631301099,Stop_5631301099,12.991327,80.0950594
5631301100,Stop_5631301100,13.0069536,80.2583912
5631301101,Stop_5631301101,13.0079179,80.2587553
5631301102,Stop_5631301102,13.0700086,80.2420016
5631301103,Stop_5631301103,13.1029895,80.2527264
5631301105,Stop_5631301105,13.0508174,80.0947925
5631301107,Stop_5631301107,12.9872302,80.2593997
5631301108,Stop_5631301108,13.0319226,80.2111736
5631301109,Stop_5631301109,13.0505248,80.2796732
5631301110,Stop_5631301110,13.0148178,80.1744381
5631301111,Stop_5631301111,13.0145924,80.1744052
5631301112,Stop_5631301112,13.0386017,80.2587935
5631301113,Stop_5631301113,13.0388081,80.2588606
5631301114,Stop_5631301114,12.9816579,80.233499
5631301115,Stop_5631301115,13.0444719,80.2685434
5631301116,Stop_5631301116,12.9883854,80.2559973
5631301117,Stop_5631301117,12.9885252,80.2558203
5631301118,Stop_5631301118,12.9906984,80.2202958
5631301119,Stop_5631301119,13.0034222,80.2477388
5631301120,Stop_5631301120,12.8238595,80.2402306
5631301421,Stop_5631301421,13.006442,80.2543612
5631301422,Stop_5631301422,13.0058253,80.2424924
5631301423,Stop_5631301423,12.9858005,80.2598
5631301424,Stop_5631301424,12.9974701,80.2162966
5631301425,Stop_5631301425,12.9973995,80.2166627
5631301426,Stop_5631301426,12.9974859,80.2164321
5631301427,Stop_5631301427,13.008031,80.209398
5631301429,Stop_5631301429,13.0089182,80.2111924
5632367706,Stop_5632367706,12.9907728,80.2300317
5632367707,Stop_5632367707,12.9909124,80.2301226
5817838780,Stop_5817838780,13.0832404,80.2829044
6031412486,Stop_6031412486,12.9257591,80.1165783
6057945756,Stop_6057945756,13.0290019,80.253739
6117608083,Stop_6117608083,13.0912499,80.2276191
6185888872,Stop_6185888872,13.0858185,80.2465885
6253855210,Stop_6253855210,13.0752687,80.1968385
6274949832,Stop_6274949832,13.0743736,80.2206151
6367914551,Stop_6367914551,13.0154329,80.1912316
6394588658,Stop_6394588658,12.9961241,80.2627793
6497450229,Stop_6497450229,13.0342592,80.230369
6518463385,Stop_6518463385,13.0906674,80.1984558
6518468529,Stop_6518468529,13.0917305,80.1984396
7053500327,Stop_7053500327,13.111373,80.1086951
7056229385,Stop_7056229385,13.0631374,80.2622149
7113711101,Stop_7113711101,12.7861984,80.2204283
7155445050,Stop_7155445050,13.0592866,80.2595105
7169395980,Stop_7169395980,13.0107563,80.1957259
7169419214,Stop_7169419214,13.0107616,80.1959419
7170102888,Stop_7170102888,12.8238587,80.2402648
7170102954,Stop_7170102954,12.8869167,80.2457574
7185777641,Stop_7185777641,13.1037511,80.1563349
7185834751,Stop_7185834751,13.1034994,80.1566326
7252487207,Stop_7252487207,13.0329587,80.212033
7255708042,Stop_7255708042,13.0577143,80.2427631
7255754030,Stop_7255754030,13.0533162,80.2479376
7281748789,Stop_7281748789,12.9090099,80.0982247
7412854052,Stop_7412854052,12.9729954,80.2502408
7412932325,Stop_7412932325,13.0883365,80.2838631
7412932327,Stop_7412932327,13.0390729,80.2575264
7412932328,Stop_7412932328,13.0356479,80.2548953
7412932329,Stop_7412932329,13.0231055,80.2427833
7412932330,Stop_7412932330,13.0185768,80.2413141
7412932331,Stop_7412932331,13.0100519,80.2405691
7412932332,Stop_7412932332,12.9862169,80.2468241
7416129840,Stop_7416129840,13.0470978,80.260961
7424295245,Stop_7424295245,12.9854059,80.2406319
7433365963,Stop_7433365963,13.011873,80.2219855
7577454519,Stop_7577454519,12.9121191,80.1432713
7577454520,Stop_7577454520,12.912176,80.1431219
7636804603,Stop_7636804603,13.0835557,80.275842
7636804604,Stop_7636804604,13.0835516,80.2758095
7636804605,Stop_7636804605,13.08354,80.2757
7636804606,Stop_7636804606,13.0835318,80.2756071
7636804607,Stop_7636804607,13.0835264,80.2755696
7636804608,Stop_7636804608,13.08351,80.2754328
7636804609,Stop_7636804609,13.0835056,80.2754043
7710665289,Stop_7710665289,13.083673,80.2747381
7710665290,Stop_7710665290,13.0835317,80.2751985
7710665291,Stop_7710665291,13.0835267,80.2751567
7765336946,Stop_7765336946,12.8128867,80.2425393
7765336956,Stop_7765336956,12.8127494,80.2423362
7794498887,Stop_7794498887,13.1008368,80.1896304
7794498890,Stop_7794498890,13.1013007,80.1896425
7794528406,Stop_7794528406,13.0646628,80.2347752
7796211329,Stop_7796211329,13.1196709,80.149986
7796211336,Stop_7796211336,13.1216328,80.1480991
7796477442,Stop_7796477442,13.1103659,80.1522998
7796477443,Stop_7796477443,13.1116502,80.1510999
7796477452,Stop_7796477452,13.1015063,80.1625708
7796477453,Stop_7796477453,13.1012433,80.1627648
7796477467,Stop_7796477467,13.0998328,80.1703579
7796477468,Stop_7796477468,13.0994583,80.1702657
7796505766,Stop_7796505766,13.0886781,80.1715578
7796505767,Stop_7796505767,13.0884416,80.172007
7796591115,Stop_7796591115,13.0941517,80.1987163
7799977292,Stop_7799977292,13.043824,80.1153082
7802828807,Stop_7802828807,12.9726442,80.1914709
7843242892,Stop_7843242892,13.1228068,80.1483885
7843267872,Stop_7843267872,13.0720107,80.2220136
7843267873,Stop_7843267873,13.073815,80.2208333
7843267874,Stop_7843267874,13.0760536,80.2181587
7869100700,Stop_7869100700,13.1060625,80.1524361
7869100702,Stop_7869100702,13.0883017,80.1784121
7869100703,Stop_7869100703,13.0678542,80.2269976
7869100704,Stop_7869100704,13.0666515,80.230974
7869148874,Stop_7869148874,13.0666287,80.2305198
7869208199,Stop_7869208199,13.1049651,80.1526301
7869208200,Stop_7869208200,13.0678373,80.2268263
7871877992,Stop_7871877992,13.05383,80.2423007
7966811036,Stop_7966811036,12.9235567,80.1593225
7966811037,Stop_7966811037,12.923213,80.1599548
8064696884,Stop_8064696884,12.9693839,80.1861325
8601096138,Stop_8601096138,12.9712759,80.219131
8976358611,Stop_8976358611,13.0984444,80.181918
9084570182,Stop_9084570182,13.0397523,80.1931123
9325976317,Stop_9325976317,12.8398094,80.0556431
9331471612,Stop_9331471612,12.9775298,80.1306267
9331499322,Stop_9331499322,12.9748777,80.1332916
9331504032,Stop_9331504032,12.9807025,80.1292081
9331571508,Stop_9331571508,12.9751633,80.13264
9331589294,Stop_9331589294,12.9744741,80.1352459
9331603402,Stop_9331603402,12.9795623,80.1289666
9368655291,Stop_9368655291,12.9726563,80.1914521
9368672356,Stop_9368672356,12.9909955,80.2200242
9370267242,Stop_9370267242,12.9829795,80.2219649
9370267243,Stop_9370267243,12.9864532,80.2229117
9370267244,Stop_9370267244,12.9976865,80.2159576
9370267245,Stop_9370267245,13.0148569,80.2045846
9370309976,Stop_9370309976,13.0890597,80.1694157
9370524480,Stop_9370524480,12.9762731,80.221563
9370524481,Stop_9370524481,12.983168,80.2524814
9399662897,Stop_9399662897,12.9806111,80.228782
9399662898,Stop_9399662898,12.99071,80.2201775
9399815493,Stop_9399815493,12.9814108,80.2427068
9399815494,Stop_9399815494,12.9812324,80.2427187
9399815495,Stop_9399815495,12.9814019,80.2427193
9399815496,Stop_9399815496,12.9812981,80.2427155
9400398338,Stop_9400398338,12.9233654,80.1206423
9400398339,Stop_9400398339,12.9228177,80.1311711
9400398340,Stop_9400398340,12.9225505,80.1436777
9400398341,Stop_9400398341,12.9234344,80.1545734
9400398342,Stop_9400398342,12.9227028,80.1473638
9400398343,Stop_9400398343,12.9226532,80.1473651
9400398344,Stop_9400398344,12.9235081,80.1593117
9400398345,Stop_9400398345,12.9209495,80.1679764
9400398346,Stop_9400398346,12.920928,80.1679701
9400398347,Stop_9400398347,12.9199655,80.1709299
9400398348,Stop_9400398348,12.9184967,80.1767624
9400398349,Stop_9400398349,12.9184602,80.176761
9400398351,Stop_9400398351,12.9204908,80.184453
9400398352,Stop_9400398352,12.9173172,80.1936779
9400398353,Stop_9400398353,12.9211296,80.1968403
9400398354,Stop_9400398354,12.9211347,80.1968921
9400398372,Stop_9400398372,12.9260465,80.1974301
9400398373,Stop_9400398373,12.9260488,80.1974863
9400398374,Stop_9400398374,12.9336313,80.2037553
9400398375,Stop_9400398375,12.9336154,80.2038226
9400398377,Stop_9400398377,12.9404262,80.2056812
9400398378,Stop_9400398378,12.9442869,80.2082021
9400398379,Stop_9400398379,12.948759,80.2098257
9400398380,Stop_9400398380,12.9487729,80.2098975
9400398381,Stop_9400398381,12.9534266,80.211823
9400398382,Stop_9400398382,12.953444,80.2118662
9400398383,Stop_9400398383,12.9638777,80.2160234
9400398385,Stop_9400398385,12.9713022,80.2190042
9400398388,Stop_9400398388,12.9276798,80.1187584
9400398389,Stop_9400398389,12.9273885,80.1184664
9400398391,Stop_9400398391,12.9293289,80.1206916
9400398392,Stop_9400398392,12.9293586,80.1206329
9401706170,Stop_9401706170,12.9751658,80.2208286
9402008106,Stop_9402008106,12.9712086,80.2192719
9402008107,Stop_9402008107,12.9634008,80.2159813
9402008108,Stop_9402008108,12.948257,80.2100823
9402008109,Stop_9402008109,12.9482196,80.2101768
9402008111,Stop_9402008111,12.9441308,80.208506
9402008112,Stop_9402008112,12.9441649,80.2083807
9402008113,Stop_9402008113,12.9338309,80.2039389
9402008114,Stop_9402008114,12.9285291,80.2021939
9402008115,Stop_9402008115,12.9265939,80.1977637
9402008116,Stop_9402008116,12.9266104,80.1976821
9402032617,Stop_9402032617,12.9220034,80.1973341
9402032618,Stop_9402032618,12.9220218,80.19725
9402032619,Stop_9402032619,12.9186199,80.1879064
9402032620,Stop_9402032620,12.9185443,80.1881393
9402032621,Stop_9402032621,12.9198324,80.1825361
9402032622,Stop_9402032622,12.9198056,80.1825618
9402032623,Stop_9402032623,12.9197846,80.1711521
9402032624,Stop_9402032624,12.9208501,80.1677021
9402032625,Stop_9402032625,12.9208982,80.1677123
9402032626,Stop_9402032626,12.9234258,80.1549683
9402032627,Stop_9402032627,12.9223886,80.1416461
9402032628,Stop_9402032628,12.9226511,80.13296
9402032629,Stop_9402032629,12.9226395,80.1329593
9402032630,Stop_9402032630,12.9227139,80.1312504
9402032631,Stop_9402032631,12.92324,80.1205694
9404967419,Stop_9404967419,12.9443297,80.208265
9412758115,Stop_9412758115,12.9227473,80.1330624
9412787718,Stop_9412787718,12.9486549,80.1851006
9412787720,Stop_9412787720,12.955952,80.1868305
9412787721,Stop_9412787721,12.9653705,80.1915804
9412787723,Stop_9412787723,12.9648168,80.1963361
9412787724,Stop_9412787724,12.9648849,80.1962538
9412787725,Stop_9412787725,12.965438,80.2013584
9412787727,Stop_9412787727,12.9653278,80.2069929
9412787728,Stop_9412787728,12.9656308,80.2043863
9412787729,Stop_9412787729,12.9658462,80.2031164
9412787731,Stop_9412787731,12.9864666,80.2229705
9412787732,Stop_9412787732,13.0048514,80.2202225
9412787734,Stop_9412787734,13.0155164,80.2250894
9412787735,Stop_9412787735,13.0221111,80.226294
9412787736,Stop_9412787736,13.0279977,80.2309273
9412787738,Stop_9412787738,13.0994556,80.1702183
9412862312,Stop_9412862312,13.0343027,80.2121485
9412862313,Stop_9412862313,13.0342862,80.2122277
9417619429,Stop_9417619429,12.9725096,80.1915348
9417619430,Stop_9417619430,12.9725284,80.1914999
9417619431,Stop_9417619431,12.9818042,80.1957994
9417619433,Stop_9417619433,12.9946272,80.200283
9417619434,Stop_9417619434,12.9395353,80.1825973
9417619436,Stop_9417619436,12.9486369,80.1851774
9417619438,Stop_9417619438,12.9559551,80.1869989
9417619440,Stop_9417619440,12.9661068,80.1886704
9417619441,Stop_9417619441,12.968278,80.189535
9417619442,Stop_9417619442,12.9682552,80.189596
9417619443,Stop_9417619443,12.9682417,80.1896401
9417619444,Stop_9417619444,12.994701,80.206559
9417619445,Stop_9417619445,12.9947979,80.2067982
9419760484,Stop_9419760484,13.0753585,80.2176228
9500680214,Stop_9500680214,12.9784111,80.2253294
9500680215,Stop_9500680215,12.9804402,80.2286896
9500730217,Stop_9500730217,12.9815365,80.2334379
9500730219,Stop_9500730219,12.9873981,80.2516421
9500730220,Stop_9500730220,12.9873622,80.2517782
9500730222,Stop_9500730222,12.9831713,80.2525253
9500730223,Stop_9500730223,12.9803011,80.2514556
9500730225,Stop_9500730225,12.9786209,80.2253008
9500730227,Stop_9500730227,12.9762478,80.2215821
9500730228,Stop_9500730228,12.9802174,80.2514209
9504474769,Stop_9504474769,13.0546591,80.2643733
9504474770,Stop_9504474770,13.057129,80.2648726
9504474773,Stop_9504474773,13.0703667,80.2737145
9504474774,Stop_9504474774,13.0763679,80.2763591
9504474775,Stop_9504474775,13.081935,80.2774889
9504474776,Stop_9504474776,13.0876798,80.2814746
9506980944,Stop_9506980944,12.9981705,80.2488385
9514055804,Stop_9514055804,12.9886237,80.197745
9514055810,Stop_9514055810,12.9977774,80.2073255
9514055811,Stop_9514055811,12.9980198,80.2072705
9514055812,Stop_9514055812,13.0048086,80.2015478
9514055813,Stop_9514055813,12.9957148,80.1892331
9514055814,Stop_9514055814,12.9827924,80.1917198
9514055815,Stop_9514055815,13.0121297,80.2202503
9514055816,Stop_9514055816,13.0254505,80.2297489
9514067017,Stop_9514067017,13.0294407,80.2369328
9514067018,Stop_9514067018,13.0465924,80.2427912
9514067019,Stop_9514067019,13.047,80.2439043
9522345424,Stop_9522345424,12.9658799,80.1889584
9522345425,Stop_9522345425,12.9648478,80.188233
9522345426,Stop_9522345426,12.9654012,80.1882967
9524625506,Stop_9524625506,12.9853446,80.1857835
9524652864,Stop_9524652864,12.9823175,80.1857694
9524666195,Stop_9524666195,12.9798333,80.1829123
9526179471,Stop_9526179471,12.9607138,80.1872835
9526179484,Stop_9526179484,12.9194261,80.1822788
9526179499,Stop_9526179499,12.9387939,80.1823586
9526179500,Stop_9526179500,12.9392448,80.182525
9526179503,Stop_9526179503,12.9492687,80.1854271
9526179504,Stop_9526179504,12.9494425,80.1852554
9529333083,Stop_9529333083,12.9873223,80.1761799
9536043083,Stop_9536043083,12.981393,80.2384985
9536047321,Stop_9536047321,12.9811706,80.2381908
9554098006,Stop_9554098006,12.9910579,80.2195223
9554102404,Stop_9554102404,12.9871386,80.2183655
9554116143,Stop_9554116143,12.9839239,80.2180709
9554140669,Stop_9554140669,13.0046861,80.2203904
9554140671,Stop_9554140671,12.9992711,80.1934383
9554147562,Stop_9554147562,13.0485705,80.2460822
9554156480,Stop_9554156480,13.0104553,80.2228615
9554162872,Stop_9554162872,12.9873344,80.2181539
9570575688,Stop_9570575688,13.0986329,80.2420053
9592492226,Stop_9592492226,13.0685576,80.2039409
9592492231,Stop_9592492231,13.0845849,80.2186077
9676595400,Stop_9676595400,12.9574911,80.178322
9676647822,Stop_9676647822,12.956068,80.1862921
9734354380,Stop_9734354380,13.0446727,80.2630248
9734368257,Stop_9734368257,13.0448097,80.2631942
9734386075,Stop_9734386075,13.0446914,80.2653248
9734398142,Stop_9734398142,13.0445686,80.2691766
9734416560,Stop_9734416560,13.0438762,80.2715829
9734417426,Stop_9734417426,13.0445902,80.2691337
9734424821,Stop_9734424821,13.0438295,80.2718498
9734428259,Stop_9734428259,13.0438575,80.2716913
9819010214,Stop_9819010214,13.0463989,80.2395728
9849133813,Stop_9849133813,12.9760401,80.1832874
9849200501,Stop_9849200501,12.9801876,80.2284298
9849235452,Stop_9849235452,12.9710697,80.1830757
9849242230,Stop_9849242230,13.0098921,80.2594022
9849246448,Stop_9849246448,12.981143,80.2342733
9849253327,Stop_9849253327,12.9817272,80.2304834
9853561301,Stop_9853561301,13.1854145,80.3170561
9853561302,Stop_9853561302,13.1856767,80.3169358
9858006724,Stop_9858006724,13.0290577,80.0901401
9858006769,Stop_9858006769,13.0326982,80.0888038
9858006821,Stop_9858006821,13.0378033,80.0870124
9858006847,Stop_9858006847,13.0420261,80.0857436
9858314115,Stop_9858314115,13.0146463,80.0937053
9858326268,Stop_9858326268,13.0085169,80.0913118
9858326388,Stop_9858326388,12.9963722,80.087067
9858326510,Stop_9858326510,12.9822599,80.0892532
9858326583,Stop_9858326583,12.9693872,80.0895921
9858405332,Stop_9858405332,12.9601816,80.0899406
9858405398,Stop_9858405398,12.9526055,80.0880269
9858405464,Stop_9858405464,12.9394356,80.0830781
9859553148,Stop_9859553148,12.9385909,80.0835877
9859553235,Stop_9859553235,12.9519772,80.0886227
9859553499,Stop_9859553499,12.959999,80.0907312
9859553722,Stop_9859553722,12.9691435,80.0903851
9859554104,Stop_9859554104,12.982084,80.0900585
9859554219,Stop_9859554219,12.9962011,80.0878387
9859637767,Stop_9859637767,13.0075983,80.0917831
9859637814,Stop_9859637814,13.0145621,80.0945056
9859637877,Stop_9859637877,13.0283787,80.0912245
9859637919,Stop_9859637919,13.0327484,80.089621
9859638026,Stop_9859638026,13.0382461,80.0876747
9859638115,Stop_9859638115,13.0439274,80.086004
9859932681,Stop_9859932681,12.9235972,80.0780255
9859932706,Stop_9859932706,12.92398,80.0773439
9859933034,Stop_9859933034,12.913686,80.0749991
9859933039,Stop_9859933039,12.9141132,80.0743228
9859933228,Stop_9859933228,12.8967659,80.0709147
9859933249,Stop_9859933249,12.8966938,80.0701581
9859933289,Stop_9859933289,12.8921662,80.0711056
9859933387,Stop_9859933387,12.8901925,80.0709524
9864935220,Stop_9864935220,13.1962315,80.1557857
9864935323,Stop_9864935323,13.1924137,80.1528963
9864935447,Stop_9864935447,13.1825577,80.1477441
9864935583,Stop_9864935583,13.1810412,80.1456597
9864935717,Stop_9864935717,13.1780528,80.136228
9864935802,Stop_9864935802,13.1792666,80.1296641
9865114872,Stop_9865114872,13.1811273,80.1163829
9865114985,Stop_9865114985,13.1789921,80.1013557
9865115252,Stop_9865115252,13.1756293,80.0767806
9865115352,Stop_9865115352,13.1738332,80.0725469
9865115487,Stop_9865115487,13.1677664,80.067719
9865115629,Stop_9865115629,13.1521683,80.0562176
9865222174,Stop_9865222174,13.1438112,80.0530238
9865222187,Stop_9865222187,13.1422694,80.0536805
9865222270,Stop_9865222270,13.1384114,80.0526312
9865222354,Stop_9865222354,13.1350323,80.053203
9865806934,Stop_9865806934,13.1276162,80.0529501
9865806966,Stop_9865806966,13.1278471,80.0521881
9865807040,Stop_9865807040,13.125207,80.0528336
9865807060,Stop_9865807060,13.1250435,80.0520493
9865807251,Stop_9865807251,13.1109847,80.0519066
9865807344,Stop_9865807344,13.1074508,80.052797
9865807385,Stop_9865807385,13.1024558,80.0520429
9865807392,Stop_9865807392,13.1032527,80.0528582
9865807493,Stop_9865807493,13.0961125,80.0528887
9865807510,Stop_9865807510,13.0956181,80.0522361
9865807745,Stop_9865807745,13.087432,80.0592936
9865807811,Stop_9865807811,13.0881139,80.0576443
9865807969,Stop_9865807969,13.0762007,80.0673127
9865807970,Stop_9865807970,13.0760405,80.0683337
9865808008,Stop_9865808008,13.0686634,80.0720323
9865808125,Stop_9865808125,13.0644838,80.0755814
9865864093,Stop_9865864093,13.0543904,80.0812227
9865864106,Stop_9865864106,13.05268,80.0827219
9872392719,Stop_9872392719,13.0888432,80.2893272
9886329408,Stop_9886329408,13.0223777,80.276278
9886468232,Stop_9886468232,13.0446919,80.2630242
9894539902,Stop_9894539902,13.0846068,80.2159694
9894539903,Stop_9894539903,13.0813149,80.2177915
9894539905,Stop_9894539905,13.0666172,80.230754
9894539908,Stop_9894539908,13.0409609,80.2405902
9894539911,Stop_9894539911,13.0364341,80.2394012
9903138576,Stop_9903138576,13.0580042,80.2116331
9903138577,Stop_9903138577,13.0650987,80.2112453
9916421668,Stop_9916421668,12.9613123,80.1872291
9918041829,Stop_9918041829,13.0289526,80.2367701
9920341481,Stop_9920341481,13.0220342,80.2261973
9920341482,Stop_9920341482,13.0195376,80.2064926
9920341495,Stop_9920341495,13.0080474,80.2131366
9920362744,Stop_9920362744,13.0633636,80.2615709
9920370156,Stop_9920370156,13.0536924,80.2530652
9920370157,Stop_9920370157,13.056719,80.2566529
9920370158,Stop_9920370158,13.0606236,80.2610739
9920387333,Stop_9920387333,13.0630453,80.263971
9920387335,Stop_9920387335,13.0305766,80.2511416
9920387336,Stop_9920387336,13.0329132,80.2529106
9920387338,Stop_9920387338,13.0274071,80.2449173
9920647758,Stop_9920647758,13.0345423,80.2300791
9921938866,Stop_9921938866,12.9961023,80.2677142
9921938867,Stop_9921938867,12.9962673,80.2624653
9921938868,Stop_9921938868,12.9987579,80.25609
9921938869,Stop_9921938869,13.0002568,80.2563936
9921938872,Stop_9921938872,13.0272018,80.2661429
9921938873,Stop_9921938873,13.0299143,80.2667084
9921938874,Stop_9921938874,13.0339289,80.2679807
9921938875,Stop_9921938875,13.0376257,80.2676931
9921938876,Stop_9921938876,13.0417805,80.2682611
9921938877,Stop_9921938877,13.0446682,80.2653247
9921938878,Stop_9921938878,13.0447817,80.2631832
9921938879,Stop_9921938879,13.0461759,80.2565485
9921938880,Stop_9921938880,13.0480058,80.2540431
9921938881,Stop_9921938881,13.050467,80.2526125
9921938882,Stop_9921938882,13.0514535,80.2518364
9921938883,Stop_9921938883,13.0549423,80.2496076
9921938884,Stop_9921938884,13.0573111,80.2486595
9921938885,Stop_9921938885,13.0594268,80.2479477
9921938886,Stop_9921938886,13.060609,80.2474532
9921938887,Stop_9921938887,13.0666679,80.247881
9921938888,Stop_9921938888,13.0671202,80.2479099
9921938889,Stop_9921938889,13.0677731,80.2465395
9921938890,Stop_9921938890,13.0704688,80.2420456
9921938891,Stop_9921938891,13.0787743,80.2521242
9921938892,Stop_9921938892,13.0799617,80.2546471
9921938893,Stop_9921938893,13.083453,80.2545545
9921938894,Stop_9921938894,13.0872312,80.2507024
9921938895,Stop_9921938895,13.0906326,80.2510679
9921938896,Stop_9921938896,13.0972562,80.2513655
9921938897,Stop_9921938897,13.102398,80.2525825
9921938898,Stop_9921938898,13.1049467,80.253114
9921938899,Stop_9921938899,13.1061602,80.2505118
9921938901,Stop_9921938901,13.1087237,80.2482805
9921938902,Stop_9921938902,13.1086719,80.2482733
9921938903,Stop_9921938903,13.1086249,80.248267
9921938904,Stop_9921938904,13.1085828,80.2482599
9921938905,Stop_9921938905,13.1085087,80.2482512
9921942425,Stop_9921942425,13.0004016,80.265804
9921942426,Stop_9921942426,13.0003026,80.2657987
9925164641,Stop_9925164641,12.9767683,80.2591481
9925164642,Stop_9925164642,12.9911149,80.2506166
9925164643,Stop_9925164643,13.0060208,80.2474155
9925164644,Stop_9925164644,13.0067764,80.2407171
9925164645,Stop_9925164645,13.0141061,80.2045404
9925164646,Stop_9925164646,13.0243279,80.2069309
9932032471,Stop_9932032471,12.9191476,80.2301533
9932746317,Stop_9932746317,13.1076464,80.1866674
9933687788,Stop_9933687788,13.0936958,80.1084728
9992430694,Stop_9992430694,13.1064674,80.2801183
9992430955,Stop_9992430955,13.1112707,80.27785
10016012917,Stop_10016012917,12.9651441,80.2474527
10016030270,Stop_10016030270,12.9671399,80.2480544
10036499425,Stop_10036499425,13.0320877,80.2422636
10036499426,Stop_10036499426,13.031926,80.241303
10102264735,Stop_10102264735,13.0930674,80.2917553
10102275912,Stop_10102275912,13.0942257,80.2921033
10115681436,Stop_10115681436,13.1045485,80.2758378
10115681437,Stop_10115681437,13.104393,80.2758788
10115882544,Stop_10115882544,13.095673,80.2864412
10115882552,Stop_10115882552,13.0936205,80.2861429
10120161717,Stop_10120161717,12.975928,80.2211155
10120161757,Stop_10120161757,12.9752026,80.2207427
10187877326,Stop_10187877326,13.0876838,80.2836744
10291068729,Stop_10291068729,13.0906372,80.1987219
10291068730,Stop_10291068730,13.0949675,80.1985353
10291068731,Stop_10291068731,13.0950055,80.1988058
10291068732,Stop_10291068732,13.1020524,80.1943128
10291068733,Stop_10291068733,13.1020714,80.1945098
10297987466,Stop_10297987466,12.919423,80.2298567
10308012376,Stop_10308012376,13.0408309,80.2321597
10536304466,Stop_10536304466,13.074746,80.2862815
10536304467,Stop_10536304467,13.074677,80.2864212
10606088293,Stop_10606088293,13.0417795,80.1757089
10798124380,Stop_10798124380,13.0856683,80.2798513
10893145245,Stop_10893145245,13.103936,80.2738432
11013403743,Stop_11013403743,12.8276033,80.1649846
11013403744,Stop_11013403744,12.827753,80.1651199
11195610936,Stop_11195610936,12.9960039,80.1099645
11195612538,Stop_11195612538,13.0317541,80.1112908
11195612539,Stop_11195612539,13.0350492,80.1120955
11195612540,Stop_11195612540,13.0381183,80.1132093
11195612541,Stop_11195612541,13.0411612,80.1144639
11195612542,Stop_11195612542,13.0438277,80.1153383
11195612543,Stop_11195612543,13.0464185,80.1118353
11195612544,Stop_11195612544,13.0523107,80.1127741
11195612545,Stop_11195612545,13.0557284,80.1139569
11195612546,Stop_11195612546,13.0619783,80.1130718
11195612547,Stop_11195612547,13.0662136,80.1126212
11195612548,Stop_11195612548,13.0748382,80.1117817
11195612549,Stop_11195612549,13.0816886,80.1093596
11195612550,Stop_11195612550,13.0865074,80.1087025
11195612551,Stop_11195612551,13.0936827,80.1085094
11195612552,Stop_11195612552,13.0983825,80.1084477
11195612553,Stop_11195612553,13.1027426,80.108453
11195612554,Stop_11195612554,13.1113894,80.108732
11195612555,Stop_11195612555,13.1142499,80.1082814
11195612556,Stop_11195612556,13.1164494,80.1005459
11195612557,Stop_11195612557,13.1167524,80.1005673
11197039984,Stop_11197039984,12.9752812,80.1326707
11197039985,Stop_11197039985,12.9782314,80.1304686
11197039986,Stop_11197039986,12.9832993,80.1276737
11218122311,Stop_11218122311,13.0350531,80.1120641
11218122312,Stop_11218122312,13.0381197,80.1131841
11218122313,Stop_11218122313,13.0411796,80.1144347
11218122314,Stop_11218122314,13.0450074,80.115662
11218122315,Stop_11218122315,13.0464201,80.1118008
11218122316,Stop_11218122316,13.0523102,80.1127315
11218122317,Stop_11218122317,13.0557341,80.113918
11218122318,Stop_11218122318,13.0619668,80.1130326
11218122319,Stop_11218122319,13.0662147,80.1125785
11218122320,Stop_11218122320,13.0748293,80.1117502
11218122321,Stop_11218122321,13.0816715,80.1093223
11218122322,Stop_11218122322,13.1027472,80.1084078
11218122323,Stop_11218122323,13.0983793,80.1083688
11218122324,Stop_11218122324,13.0865016,80.1086769
11218122325,Stop_11218122325,13.1142419,80.1082232
11220607610,Stop_11220607610,13.1165614,80.1005382
11220909946,Stop_11220909946,13.0358165,80.2057589
11220909947,Stop_11220909947,13.0356997,80.2057471
11228615338,Stop_11228615338,12.8871781,80.1842212
11454500629,Stop_11454500629,13.0740459,80.2268379
11454501196,Stop_11454501196,13.0565716,80.1135717
11468853773,Stop_11468853773,13.0511915,80.0896542
11502813606,Stop_11502813606,13.1039058,80.2760763
11591395641,Stop_11591395641,12.9635886,80.2157109
11898326816,Stop_11898326816,12.9781744,80.2041858
11898334385,Stop_11898334385,12.9781744,80.2041858
11915150827,Stop_11915150827,13.1235952,80.2014698
11915150828,Stop_11915150828,13.1237598,80.202265
11915150829,Stop_11915150829,13.1238068,80.2028994
11915150830,Stop_11915150830,13.1182677,80.1983906
11924536816,Stop_11924536816,13.0292564,80.2661412
11924536817,Stop_11924536817,13.0265016,80.2643143
11924536818,Stop_11924536818,13.0265316,80.2641813
11924536819,Stop_11924536819,13.0288106,80.2639144
11924536820,Stop_11924536820,13.0338241,80.2678824
11924536821,Stop_11924536821,13.0369443,80.2670478
11930865099,Stop_11930865099,13.1582106,80.2036717
11949343662,Stop_11949343662,12.9759392,80.2129143
11949359786,Stop_11949359786,12.9919179,80.2058126
11949365488,Stop_11949365488,12.9844281,80.2049489
11949365490,Stop_11949365490,12.9871331,80.2053644
11949365493,Stop_11949365493,12.9891277,80.2048999
11949388470,Stop_11949388470,12.9832652,80.2070307
11953087580,Stop_11953087580,13.1260395,80.2064145
11953087581,Stop_11953087581,13.1257782,80.2066103
11953087582,Stop_11953087582,13.1299942,80.2139623
11953087583,Stop_11953087583,13.1307073,80.2138201
11953087584,Stop_11953087584,13.1356937,80.2162314
11953087585,Stop_11953087585,13.1359314,80.2165935
11953087586,Stop_11953087586,13.1449193,80.2193508
11953087587,Stop_11953087587,13.1440155,80.220311
11953087588,Stop_11953087588,13.1532668,80.2081352
11953087589,Stop_11953087589,13.1534862,80.208343
11953087593,Stop_11953087593,13.1579812,80.2040528
11953087600,Stop_11953087600,13.1580752,80.2033313
11953087601,Stop_11953087601,13.1643511,80.2023309
11953087602,Stop_11953087602,13.1651503,80.2023657
11953087603,Stop_11953087603,13.1704729,80.1992463
11953087604,Stop_11953087604,13.1700994,80.1998069
11953087605,Stop_11953087605,13.1780309,80.1953625
11953087606,Stop_11953087606,13.1784566,80.1947536
11953087611,Stop_11953087611,13.1894981,80.1873829
11953087612,Stop_11953087612,13.1897906,80.1874205
11953087613,Stop_11953087613,13.0790989,80.1986859
11959583808,Stop_11959583808,12.9828708,80.2220062
11959583813,Stop_11959583813,12.9829338,80.2219894
11959593354,Stop_11959593354,13.0148395,80.2046476
11959593355,Stop_11959593355,13.0186308,80.2059629
11959593356,Stop_11959593356,13.02436,80.2067601
11959593357,Stop_11959593357,13.0316093,80.2093455
11959593358,Stop_11959593358,13.0315928,80.2093923
11959593359,Stop_11959593359,13.0351053,80.2111984
11959593360,Stop_11959593360,13.0351199,80.2111129
11959593361,Stop_11959593361,13.0350987,80.2111199
11959599075,Stop_11959599075,12.9903945,80.2203974
11959599076,Stop_11959599076,12.9977277,80.2160004
11959617427,Stop_11959617427,13.0462851,80.2121116
11959617428,Stop_11959617428,13.046284,80.2121909
11959650452,Stop_11959650452,13.0610969,80.1386175
11959650453,Stop_11959650453,13.0603958,80.1548331
11959650454,Stop_11959650454,13.0612688,80.1646145
11959650455,Stop_11959650455,13.0631574,80.1671922
11959650456,Stop_11959650456,13.0665939,80.1748475
11959650457,Stop_11959650457,13.0698028,80.1816193
11959650458,Stop_11959650458,13.0714981,80.186249
11959650459,Stop_11959650459,13.0745102,80.1994378
11959664546,Stop_11959664546,13.0744576,80.1993985
11959664547,Stop_11959664547,13.0714012,80.1862757
11959664548,Stop_11959664548,13.0697316,80.1816826
11959664549,Stop_11959664549,13.0665327,80.1748903
11959665380,Stop_11959665380,13.0631224,80.1672127
11959665381,Stop_11959665381,13.0612345,80.1646195
11959665382,Stop_11959665382,13.0603444,80.1548311
11959665383,Stop_11959665383,13.0610323,80.1386139
11962082455,Stop_11962082455,13.0695957,80.1241457
11962082456,Stop_11962082456,13.0696002,80.1240609
11962082457,Stop_11962082457,13.069608,80.1239787
11962082458,Stop_11962082458,13.0696152,80.1238956
12076683371,Stop_12076683371,13.0526232,80.0755593
12108836587,Stop_12108836587,12.8786189,80.2161601
12114421266,Stop_12114421266,13.1505889,80.1914184
12147208813,Stop_12147208813,13.1841966,80.1916402
12155348708,Stop_12155348708,13.1269583,80.1942278
12155348709,Stop_12155348709,13.1269857,80.1944102
12155348710,Stop_12155348710,13.1354867,80.190348
12155348711,Stop_12155348711,13.1355847,80.1903386
12167706507,Stop_12167706507,13.0772379,80.2251117
12169680535,Stop_12169680535,13.0845003,80.2198834
12169680536,Stop_12169680536,13.0846852,80.2198338
12169834258,Stop_12169834258,13.0855408,80.2181648
12169834259,Stop_12169834259,13.0855408,80.2178483
12188084879,Stop_12188084879,13.1228548,80.2015899
12188084880,Stop_12188084880,13.1185173,80.205062
12188084881,Stop_12188084881,13.1186322,80.2050566
12188084882,Stop_12188084882,13.1139224,80.2067223
12188084883,Stop_12188084883,13.1139119,80.2068779
12188084884,Stop_12188084884,13.1083791,80.2059605
12202926833,Stop_12202926833,13.1326681,80.1734513
12202926834,Stop_12202926834,13.13207,80.1717346
12202926835,Stop_12202926835,13.1319864,80.1696533
12202926836,Stop_12202926836,13.1319368,80.1652464
12202926837,Stop_12202926837,13.1303565,80.1585784
12203059705,Stop_12203059705,13.1077295,80.2436354
12203183697,Stop_12203183697,13.0087993,80.2132503
12361399925,Stop_12361399925,12.901036,80.2275695
12404453182,Stop_12404453182,12.8680865,80.0755956
12458643768,Stop_12458643768,13.1886341,80.3149032
12458688668,Stop_12458688668,13.1842959,80.3089189
12458688674,Stop_12458688674,13.1862231,80.3076209
12458710742,Stop_12458710742,13.1912925,80.3134402
12458713955,Stop_12458713955,13.1841093,80.3088046
12458713956,Stop_12458713956,13.1839156,80.3085916
12458756398,Stop_12458756398,13.1914849,80.3133575
12512509201,Stop_12512509201,12.8972464,80.1820197
12546626262,Stop_12546626262,13.0777478,80.242907
12581554803,Stop_12581554803,13.1366014,80.230819
12581635599,Stop_12581635599,13.1350989,80.2385828
12581645338,Stop_12581645338,13.1292868,80.2413545
12794255583,Stop_12794255583,13.0835001,80.2749403
12794255584,Stop_12794255584,13.0835059,80.2749931
12986091907,Stop_12986091907,12.9133328,80.2293073
12986110301,Stop_12986110301,12.8857366,80.2269108
12986110401,Stop_12986110401,12.8779737,80.2269472
13254368531,Stop_13254368531,12.8802996,80.1088408
13439108501,Stop_13439108501,12.9806227,80.2287432
13513843601,Stop_13513843601,13.0538791,80.2421911
13513843701,Stop_13513843701,13.0589363,80.2401152
